[
  {
    "name": "Shanghai",
    "lat": 31.22222,
    "lon": 121.45806
  },
  {
    "name": "Beijing",
    "lat": 39.9075,
    "lon": 116.39723
  },
  {
    "name": "Shenzhen",
    "lat": 22.54554,
    "lon": 114.0683
  },
  {
    "name": "Guangzhou",
    "lat": 23.11667,
    "lon": 113.25
  },
  {
    "name": "Kinshasa",
    "lat": -4.32758,
    "lon": 15.31357
  },
  {
    "name": "Istanbul",
    "lat": 41.01384,
    "lon": 28.94966
  },
  {
    "name": "Lagos",
    "lat": 6.45407,
    "lon": 3.39467
  },
  {
    "name": "Ho Chi Minh City",
    "lat": 10.82302,
    "lon": 106.62965
  },
  {
    "name": "Chengdu",
    "lat": 30.66667,
    "lon": 104.06667
  },
  {
    "name": "Lahore",
    "lat": 31.558,
    "lon": 74.35071
  },
  {
    "name": "Mumbai",
    "lat": 19.07283,
    "lon": 72.88261
  },
  {
    "name": "São Paulo",
    "lat": -23.5475,
    "lon": -46.63611
  },
  {
    "name": "Mexico City",
    "lat": 19.42847,
    "lon": -99.12766
  },
  {
    "name": "Karachi",
    "lat": 24.8608,
    "lon": 67.0104
  },
  {
    "name": "Tianjin",
    "lat": 39.14222,
    "lon": 117.17667
  },
  {
    "name": "Delhi",
    "lat": 28.65195,
    "lon": 77.23149
  },
  {
    "name": "Wuhan",
    "lat": 30.58333,
    "lon": 114.26667
  },
  {
    "name": "Moscow",
    "lat": 55.75204,
    "lon": 37.61781
  },
  {
    "name": "Dhaka",
    "lat": 23.7104,
    "lon": 90.40744
  },
  {
    "name": "Seoul",
    "lat": 37.566,
    "lon": 126.9784
  },
  {
    "name": "Tokyo",
    "lat": 35.6895,
    "lon": 139.69171
  },
  {
    "name": "Dongguan",
    "lat": 23.01797,
    "lon": 113.74866
  },
  {
    "name": "Cairo",
    "lat": 30.06263,
    "lon": 31.24967
  },
  {
    "name": "Xi’an",
    "lat": 34.25833,
    "lon": 108.92861
  },
  {
    "name": "Johannesburg",
    "lat": -26.20227,
    "lon": 28.04363
  },
  {
    "name": "Nanjing",
    "lat": 32.06167,
    "lon": 118.77778
  },
  {
    "name": "Hangzhou",
    "lat": 30.29365,
    "lon": 120.16142
  },
  {
    "name": "Foshan",
    "lat": 23.02677,
    "lon": 113.13148
  },
  {
    "name": "London",
    "lat": 51.50853,
    "lon": -0.12574
  },
  {
    "name": "New York City",
    "lat": 40.71427,
    "lon": -74.00597
  },
  {
    "name": "Jakarta",
    "lat": -6.21462,
    "lon": 106.84513
  },
  {
    "name": "Bengaluru",
    "lat": 12.97194,
    "lon": 77.59369
  },
  {
    "name": "Hanoi",
    "lat": 21.0245,
    "lon": 105.84117
  },
  {
    "name": "Taipei",
    "lat": 25.05306,
    "lon": 121.52639
  },
  {
    "name": "Lima",
    "lat": -12.04318,
    "lon": -77.02824
  },
  {
    "name": "Bogotá",
    "lat": 4.60971,
    "lon": -74.08175
  },
  {
    "name": "Chongqing",
    "lat": 29.56026,
    "lon": 106.55771
  },
  {
    "name": "Hong Kong",
    "lat": 22.27832,
    "lon": 114.17469
  },
  {
    "name": "Baghdad",
    "lat": 33.34058,
    "lon": 44.40088
  },
  {
    "name": "Qingdao",
    "lat": 36.06488,
    "lon": 120.38042
  },
  {
    "name": "Tehran",
    "lat": 35.69439,
    "lon": 51.42151
  },
  {
    "name": "Shenyang",
    "lat": 41.79222,
    "lon": 123.43278
  },
  {
    "name": "Hyderabad",
    "lat": 17.38405,
    "lon": 78.45636
  },
  {
    "name": "Rio de Janeiro",
    "lat": -22.90642,
    "lon": -43.18223
  },
  {
    "name": "Suzhou",
    "lat": 31.30408,
    "lon": 120.59538
  },
  {
    "name": "Ahmedabad",
    "lat": 23.02579,
    "lon": 72.58727
  },
  {
    "name": "Abidjan",
    "lat": 5.35444,
    "lon": -4.00167
  },
  {
    "name": "Singapore",
    "lat": 1.28967,
    "lon": 103.85007
  },
  {
    "name": "Sydney",
    "lat": -33.86785,
    "lon": 151.20732
  },
  {
    "name": "Dar es Salaam",
    "lat": -6.82349,
    "lon": 39.26951
  },
  {
    "name": "Saint Petersburg",
    "lat": 59.93863,
    "lon": 30.31413
  },
  {
    "name": "Melbourne",
    "lat": -37.814,
    "lon": 144.96332
  },
  {
    "name": "Alexandria",
    "lat": 31.20176,
    "lon": 29.91582
  },
  {
    "name": "Harbin",
    "lat": 45.75,
    "lon": 126.65
  },
  {
    "name": "Bangkok",
    "lat": 13.75398,
    "lon": 100.50144
  },
  {
    "name": "Hefei",
    "lat": 31.86389,
    "lon": 117.28083
  },
  {
    "name": "Dalian",
    "lat": 38.91222,
    "lon": 121.60222
  },
  {
    "name": "Kano",
    "lat": 12.00012,
    "lon": 8.51672
  },
  {
    "name": "Santiago",
    "lat": -33.45694,
    "lon": -70.64827
  },
  {
    "name": "Cape Town",
    "lat": -33.92584,
    "lon": 18.42322
  },
  {
    "name": "Peshawar",
    "lat": 34.008,
    "lon": 71.57849
  },
  {
    "name": "Changchun",
    "lat": 43.88,
    "lon": 125.32278
  },
  {
    "name": "Jeddah",
    "lat": 21.49012,
    "lon": 39.18624
  },
  {
    "name": "Chennai",
    "lat": 13.08784,
    "lon": 80.27847
  },
  {
    "name": "Kolkata",
    "lat": 22.56263,
    "lon": 88.36304
  },
  {
    "name": "Xiamen",
    "lat": 24.47979,
    "lon": 118.08187
  },
  {
    "name": "Surat",
    "lat": 21.19594,
    "lon": 72.83023
  },
  {
    "name": "Yangon",
    "lat": 16.80528,
    "lon": 96.15611
  },
  {
    "name": "Bao'an",
    "lat": 22.55213,
    "lon": 113.88288
  },
  {
    "name": "Kabul",
    "lat": 34.52813,
    "lon": 69.17233
  },
  {
    "name": "Nairobi",
    "lat": -1.28333,
    "lon": 36.81667
  },
  {
    "name": "Wuxi",
    "lat": 31.56887,
    "lon": 120.28857
  },
  {
    "name": "Giza",
    "lat": 30.00944,
    "lon": 31.20861
  },
  {
    "name": "Jinan",
    "lat": 36.66833,
    "lon": 116.99722
  },
  {
    "name": "Taiyuan",
    "lat": 37.86944,
    "lon": 112.56028
  },
  {
    "name": "Zhengzhou",
    "lat": 34.75778,
    "lon": 113.64861
  },
  {
    "name": "Bamako",
    "lat": 12.60915,
    "lon": -7.97522
  },
  {
    "name": "Riyadh",
    "lat": 24.68773,
    "lon": 46.72185
  },
  {
    "name": "New Taipei City",
    "lat": 25.06199,
    "lon": 121.45703
  },
  {
    "name": "New Territories",
    "lat": 22.42441,
    "lon": 114.11095
  },
  {
    "name": "Shijiazhuang",
    "lat": 38.04139,
    "lon": 114.47861
  },
  {
    "name": "Chattogram",
    "lat": 22.3384,
    "lon": 91.83168
  },
  {
    "name": "Addis Ababa",
    "lat": 9.02497,
    "lon": 38.74689
  },
  {
    "name": "Kunming",
    "lat": 25.03889,
    "lon": 102.71833
  },
  {
    "name": "Zhongshan",
    "lat": 22.52306,
    "lon": 113.37912
  },
  {
    "name": "Nanning",
    "lat": 22.81667,
    "lon": 108.31667
  },
  {
    "name": "Shantou",
    "lat": 23.35489,
    "lon": 116.67876
  },
  {
    "name": "Los Angeles",
    "lat": 34.05223,
    "lon": -118.24368
  },
  {
    "name": "Faisalabad",
    "lat": 31.41554,
    "lon": 73.08969
  },
  {
    "name": "Dubai",
    "lat": 25.07725,
    "lon": 55.30927
  },
  {
    "name": "Yokohama",
    "lat": 35.43333,
    "lon": 139.65
  },
  {
    "name": "Fuzhou",
    "lat": 26.06139,
    "lon": 119.30611
  },
  {
    "name": "Ningbo",
    "lat": 29.87819,
    "lon": 121.54945
  },
  {
    "name": "Casablanca",
    "lat": 33.58831,
    "lon": -7.61138
  },
  {
    "name": "Ibadan",
    "lat": 7.37756,
    "lon": 3.90591
  },
  {
    "name": "Puyang",
    "lat": 29.45679,
    "lon": 119.88872
  },
  {
    "name": "Ankara",
    "lat": 39.91987,
    "lon": 32.85427
  },
  {
    "name": "Shiyan",
    "lat": 32.6475,
    "lon": 110.77806
  },
  {
    "name": "Berlin",
    "lat": 52.52437,
    "lon": 13.41053
  },
  {
    "name": "Tangshan",
    "lat": 39.64381,
    "lon": 118.18319
  },
  {
    "name": "Rawalpindi",
    "lat": 33.59733,
    "lon": 73.0479
  },
  {
    "name": "Lüliang",
    "lat": 37.5192,
    "lon": 111.14436
  },
  {
    "name": "Busan",
    "lat": 35.10168,
    "lon": 129.03004
  },
  {
    "name": "Durban",
    "lat": -29.8579,
    "lon": 31.0292
  },
  {
    "name": "Changzhou",
    "lat": 31.77359,
    "lon": 119.95401
  },
  {
    "name": "Madrid",
    "lat": 40.4165,
    "lon": -3.70256
  },
  {
    "name": "Pyongyang",
    "lat": 39.03385,
    "lon": 125.75432
  },
  {
    "name": "Zibo",
    "lat": 36.79056,
    "lon": 118.06333
  },
  {
    "name": "Pune",
    "lat": 18.51957,
    "lon": 73.85535
  },
  {
    "name": "Bursa",
    "lat": 40.19559,
    "lon": 29.06013
  },
  {
    "name": "Changsha",
    "lat": 28.19874,
    "lon": 112.97087
  },
  {
    "name": "Quezon City",
    "lat": 14.6488,
    "lon": 121.0509
  },
  {
    "name": "Jaipur",
    "lat": 26.91962,
    "lon": 75.78781
  },
  {
    "name": "Incheon",
    "lat": 37.45646,
    "lon": 126.70515
  },
  {
    "name": "Guiyang",
    "lat": 26.58333,
    "lon": 106.71667
  },
  {
    "name": "Ürümqi",
    "lat": 43.80096,
    "lon": 87.60046
  },
  {
    "name": "Lanzhou",
    "lat": 36.05701,
    "lon": 103.83987
  },
  {
    "name": "Caracas",
    "lat": 10.48801,
    "lon": -66.87919
  },
  {
    "name": "İzmir",
    "lat": 38.41273,
    "lon": 27.13838
  },
  {
    "name": "Huizhou",
    "lat": 23.11147,
    "lon": 114.41523
  },
  {
    "name": "Buenos Aires",
    "lat": -34.61315,
    "lon": -58.37723
  },
  {
    "name": "Surabaya",
    "lat": -7.24917,
    "lon": 112.75083
  },
  {
    "name": "Haikou",
    "lat": 20.03421,
    "lon": 110.34651
  },
  {
    "name": "Taichung",
    "lat": 24.1469,
    "lon": 120.6839
  },
  {
    "name": "Kanpur",
    "lat": 26.46523,
    "lon": 80.34975
  },
  {
    "name": "Kyiv",
    "lat": 50.45466,
    "lon": 30.5238
  },
  {
    "name": "Toronto",
    "lat": 43.70643,
    "lon": -79.39864
  },
  {
    "name": "Quito",
    "lat": -0.22985,
    "lon": -78.52495
  },
  {
    "name": "Brisbane",
    "lat": -27.46794,
    "lon": 153.02809
  },
  {
    "name": "Luanda",
    "lat": -8.83682,
    "lon": 13.23432
  },
  {
    "name": "Osaka",
    "lat": 34.69379,
    "lon": 135.50107
  },
  {
    "name": "Linyi",
    "lat": 35.06306,
    "lon": 118.34278
  },
  {
    "name": "Baoding",
    "lat": 38.87288,
    "lon": 115.46246
  },
  {
    "name": "Kaohsiung",
    "lat": 22.61626,
    "lon": 120.31333
  },
  {
    "name": "Brooklyn",
    "lat": 40.6501,
    "lon": -73.94958
  },
  {
    "name": "Guayaquil",
    "lat": -2.19616,
    "lon": -79.88621
  },
  {
    "name": "Belo Horizonte",
    "lat": -19.92083,
    "lon": -43.93778
  },
  {
    "name": "Salvador",
    "lat": -12.97563,
    "lon": -38.49096
  },
  {
    "name": "Abuja",
    "lat": 9.05785,
    "lon": 7.49508
  },
  {
    "name": "Gazipur",
    "lat": 23.99844,
    "lon": 90.42234
  },
  {
    "name": "Chicago",
    "lat": 41.85003,
    "lon": -87.65005
  },
  {
    "name": "Wenzhou",
    "lat": 27.99942,
    "lon": 120.66682
  },
  {
    "name": "Dakar",
    "lat": 14.6937,
    "lon": -17.44406
  },
  {
    "name": "Haiphong",
    "lat": 20.86481,
    "lon": 106.68345
  },
  {
    "name": "Yunfu",
    "lat": 22.92787,
    "lon": 112.03809
  },
  {
    "name": "Navi Mumbai",
    "lat": 19.03681,
    "lon": 73.01582
  },
  {
    "name": "Mogadishu",
    "lat": 2.03711,
    "lon": 45.34375
  },
  {
    "name": "Bekasi",
    "lat": -6.2349,
    "lon": 106.9896
  },
  {
    "name": "Kumasi",
    "lat": 6.68848,
    "lon": -1.62443
  },
  {
    "name": "Gujranwala",
    "lat": 32.15567,
    "lon": 74.18705
  },
  {
    "name": "Huai'an",
    "lat": 33.58861,
    "lon": 119.01917
  },
  {
    "name": "Lucknow",
    "lat": 26.83928,
    "lon": 80.92313
  },
  {
    "name": "Bandung",
    "lat": -6.92222,
    "lon": 107.60694
  },
  {
    "name": "Medan",
    "lat": 3.58333,
    "lon": 98.66667
  },
  {
    "name": "Ouagadougou",
    "lat": 12.36566,
    "lon": -1.53388
  },
  {
    "name": "Nagpur",
    "lat": 21.14631,
    "lon": 79.08491
  },
  {
    "name": "Fortaleza",
    "lat": -3.71722,
    "lon": -38.54306
  },
  {
    "name": "Cali",
    "lat": 3.43054,
    "lon": -76.5199
  },
  {
    "name": "Daegu",
    "lat": 35.87028,
    "lon": 128.59111
  },
  {
    "name": "Algiers",
    "lat": 36.73225,
    "lon": 3.08746
  },
  {
    "name": "Nanchang",
    "lat": 28.68396,
    "lon": 115.85306
  },
  {
    "name": "Hohhot",
    "lat": 40.81056,
    "lon": 111.65222
  },
  {
    "name": "Nagoya",
    "lat": 35.18147,
    "lon": 136.90641
  },
  {
    "name": "Rome",
    "lat": 41.89193,
    "lon": 12.51133
  },
  {
    "name": "Queens",
    "lat": 40.68149,
    "lon": -73.83652
  },
  {
    "name": "Houston",
    "lat": 29.76328,
    "lon": -95.36327
  },
  {
    "name": "Perth",
    "lat": -31.95224,
    "lon": 115.8614
  },
  {
    "name": "Mashhad",
    "lat": 36.29807,
    "lon": 59.60567
  },
  {
    "name": "Shaoxing",
    "lat": 30.00237,
    "lon": 120.57864
  },
  {
    "name": "Nantong",
    "lat": 32.03028,
    "lon": 120.87472
  },
  {
    "name": "Kowloon",
    "lat": 22.31667,
    "lon": 114.18333
  },
  {
    "name": "Yantai",
    "lat": 37.47649,
    "lon": 121.44081
  },
  {
    "name": "Lubumbashi",
    "lat": -11.66089,
    "lon": 27.47938
  },
  {
    "name": "Manaus",
    "lat": -3.10194,
    "lon": -60.025
  },
  {
    "name": "Lusaka",
    "lat": -15.40669,
    "lon": 28.28713
  },
  {
    "name": "Brasília",
    "lat": -15.77972,
    "lon": -47.92972
  },
  {
    "name": "Zhuhai",
    "lat": 22.27694,
    "lon": 113.56778
  },
  {
    "name": "Santo Domingo",
    "lat": 18.47186,
    "lon": -69.89232
  },
  {
    "name": "Lomé",
    "lat": 6.12874,
    "lon": 1.22154
  },
  {
    "name": "Multan",
    "lat": 30.19679,
    "lon": 71.47824
  },
  {
    "name": "Havana",
    "lat": 23.13302,
    "lon": -82.38304
  },
  {
    "name": "Baotou",
    "lat": 40.6516,
    "lon": 109.84389
  },
  {
    "name": "Depok",
    "lat": -6.4,
    "lon": 106.81861
  },
  {
    "name": "Paris",
    "lat": 48.85341,
    "lon": 2.3488
  },
  {
    "name": "Coimbatore",
    "lat": 11.00555,
    "lon": 76.96612
  },
  {
    "name": "Gaziantep",
    "lat": 37.05944,
    "lon": 37.3825
  },
  {
    "name": "Qingyang",
    "lat": 35.70976,
    "lon": 107.64455
  },
  {
    "name": "Port Harcourt",
    "lat": 4.77742,
    "lon": 7.0134
  },
  {
    "name": "Pretoria",
    "lat": -25.74486,
    "lon": 28.18783
  },
  {
    "name": "Córdoba",
    "lat": -31.40648,
    "lon": -64.18853
  },
  {
    "name": "Mbuji-Mayi",
    "lat": -6.13603,
    "lon": 23.58979
  },
  {
    "name": "Aleppo",
    "lat": 36.20124,
    "lon": 37.16117
  },
  {
    "name": "Kunshan",
    "lat": 31.37762,
    "lon": 120.95431
  },
  {
    "name": "Al Mawşil al Jadīdah",
    "lat": 36.33271,
    "lon": 43.10555
  },
  {
    "name": "Weifang",
    "lat": 36.71,
    "lon": 119.10194
  },
  {
    "name": "Zunyi",
    "lat": 27.68667,
    "lon": 106.90722
  },
  {
    "name": "Al Başrah al Qadīmah",
    "lat": 30.50316,
    "lon": 47.81507
  },
  {
    "name": "La Paz",
    "lat": -16.5,
    "lon": -68.15
  },
  {
    "name": "Lianyungang",
    "lat": 34.59845,
    "lon": 119.21556
  },
  {
    "name": "Medellín",
    "lat": 6.245,
    "lon": -75.57151
  },
  {
    "name": "Indore",
    "lat": 22.71792,
    "lon": 75.8333
  },
  {
    "name": "Brazzaville",
    "lat": -4.26613,
    "lon": 15.28318
  },
  {
    "name": "Tashkent",
    "lat": 41.26465,
    "lon": 69.21627
  },
  {
    "name": "Ganzhou",
    "lat": 25.84664,
    "lon": 114.9326
  },
  {
    "name": "Almaty",
    "lat": 43.25249,
    "lon": 76.9115
  },
  {
    "name": "Khartoum",
    "lat": 15.55177,
    "lon": 32.53241
  },
  {
    "name": "Sapporo",
    "lat": 43.06667,
    "lon": 141.35
  },
  {
    "name": "Accra",
    "lat": 5.55602,
    "lon": -0.1969
  },
  {
    "name": "Curitiba",
    "lat": -25.42778,
    "lon": -49.27306
  },
  {
    "name": "Ordos",
    "lat": 39.6086,
    "lon": 109.78157
  },
  {
    "name": "Sanaa",
    "lat": 15.35452,
    "lon": 44.20646
  },
  {
    "name": "Conakry",
    "lat": 9.53795,
    "lon": -13.67729
  },
  {
    "name": "Tijuana",
    "lat": 32.5027,
    "lon": -117.00371
  },
  {
    "name": "Hyderabad",
    "lat": 25.39689,
    "lon": 68.37718
  },
  {
    "name": "Beirut",
    "lat": 33.89332,
    "lon": 35.50157
  },
  {
    "name": "Tangerang",
    "lat": -6.17806,
    "lon": 106.63
  },
  {
    "name": "Jieyang",
    "lat": 23.5418,
    "lon": 116.36581
  },
  {
    "name": "Jilin",
    "lat": 43.84652,
    "lon": 126.5608
  },
  {
    "name": "Bucharest",
    "lat": 44.43225,
    "lon": 26.10626
  },
  {
    "name": "Camayenne",
    "lat": 9.535,
    "lon": -13.68778
  },
  {
    "name": "Kakamega",
    "lat": 0.28422,
    "lon": 34.75229
  },
  {
    "name": "Nanchong",
    "lat": 30.79508,
    "lon": 106.08473
  },
  {
    "name": "Tainan",
    "lat": 22.99083,
    "lon": 120.21333
  },
  {
    "name": "Datong",
    "lat": 40.09361,
    "lon": 113.29139
  },
  {
    "name": "Kaduna",
    "lat": 10.52641,
    "lon": 7.43879
  },
  {
    "name": "Omdurman",
    "lat": 15.64453,
    "lon": 32.47773
  },
  {
    "name": "Davao",
    "lat": 7.07306,
    "lon": 125.61278
  },
  {
    "name": "Hamburg",
    "lat": 53.55073,
    "lon": 9.99302
  },
  {
    "name": "Thāne",
    "lat": 19.19704,
    "lon": 72.96355
  },
  {
    "name": "Iztapalapa",
    "lat": 19.35529,
    "lon": -99.06224
  },
  {
    "name": "Santa Cruz de la Sierra",
    "lat": -17.78629,
    "lon": -63.18117
  },
  {
    "name": "Vadodara",
    "lat": 22.29941,
    "lon": 73.20812
  },
  {
    "name": "Adana",
    "lat": 36.98615,
    "lon": 35.32531
  },
  {
    "name": "Nanyang",
    "lat": 33.00524,
    "lon": 112.54659
  },
  {
    "name": "Abu Dhabi",
    "lat": 24.45118,
    "lon": 54.39696
  },
  {
    "name": "Sharjah",
    "lat": 25.3342,
    "lon": 55.41221
  },
  {
    "name": "Bhopal",
    "lat": 23.25469,
    "lon": 77.40289
  },
  {
    "name": "Jiangmen",
    "lat": 22.58333,
    "lon": 113.08333
  },
  {
    "name": "Diyarbakır",
    "lat": 37.91363,
    "lon": 40.21721
  },
  {
    "name": "Benin City",
    "lat": 6.33815,
    "lon": 5.62575
  },
  {
    "name": "Jiangyin",
    "lat": 31.91102,
    "lon": 120.26302
  },
  {
    "name": "Fuyang",
    "lat": 32.9,
    "lon": 115.81667
  },
  {
    "name": "Montréal",
    "lat": 45.50884,
    "lon": -73.58781
  },
  {
    "name": "Bayan Nur",
    "lat": 40.74143,
    "lon": 107.38599
  },
  {
    "name": "Maracaibo",
    "lat": 10.64232,
    "lon": -71.61089
  },
  {
    "name": "Chaozhou",
    "lat": 23.65396,
    "lon": 116.62262
  },
  {
    "name": "Minsk",
    "lat": 53.90019,
    "lon": 27.56653
  },
  {
    "name": "Budapest",
    "lat": 47.49835,
    "lon": 19.04045
  },
  {
    "name": "Qingyuan",
    "lat": 23.7,
    "lon": 113.03333
  },
  {
    "name": "Tai’an",
    "lat": 36.18528,
    "lon": 117.12
  },
  {
    "name": "Rasapūdipalem",
    "lat": 17.73308,
    "lon": 83.31622
  },
  {
    "name": "Pimpri-Chinchwad",
    "lat": 18.61867,
    "lon": 73.80375
  },
  {
    "name": "Caloocan",
    "lat": 14.64953,
    "lon": 120.96788
  },
  {
    "name": "Warsaw",
    "lat": 52.22977,
    "lon": 21.01178
  },
  {
    "name": "Soweto",
    "lat": -26.26781,
    "lon": 27.85849
  },
  {
    "name": "Puebla",
    "lat": 19.04778,
    "lon": -98.20723
  },
  {
    "name": "Vienna",
    "lat": 48.20849,
    "lon": 16.37208
  },
  {
    "name": "Barcelona",
    "lat": 41.38879,
    "lon": 2.15899
  },
  {
    "name": "Patna",
    "lat": 25.59408,
    "lon": 85.13563
  },
  {
    "name": "Mosul",
    "lat": 36.335,
    "lon": 43.11889
  },
  {
    "name": "Kallakurichi",
    "lat": 11.73379,
    "lon": 78.95925
  },
  {
    "name": "Kampala",
    "lat": 0.31628,
    "lon": 32.58219
  },
  {
    "name": "Xining",
    "lat": 36.62554,
    "lon": 101.75739
  },
  {
    "name": "Changshu",
    "lat": 31.64615,
    "lon": 120.74221
  },
  {
    "name": "Palembang",
    "lat": -2.91673,
    "lon": 104.7458
  },
  {
    "name": "Huainan",
    "lat": 32.62639,
    "lon": 116.99694
  },
  {
    "name": "Rabat",
    "lat": 34.01325,
    "lon": -6.83255
  },
  {
    "name": "Semarang",
    "lat": -6.99306,
    "lon": 110.42083
  },
  {
    "name": "Recife",
    "lat": -8.05389,
    "lon": -34.88111
  },
  {
    "name": "Phoenix",
    "lat": 33.44838,
    "lon": -112.07404
  },
  {
    "name": "Suzhou",
    "lat": 33.63611,
    "lon": 116.97889
  },
  {
    "name": "Ecatepec de Morelos",
    "lat": 19.60492,
    "lon": -99.06064
  },
  {
    "name": "Lu’an",
    "lat": 31.73561,
    "lon": 116.51688
  },
  {
    "name": "Valencia",
    "lat": 10.16153,
    "lon": -68.00044
  },
  {
    "name": "Ludhiana",
    "lat": 30.91204,
    "lon": 75.85379
  },
  {
    "name": "Yancheng",
    "lat": 33.3575,
    "lon": 120.1573
  },
  {
    "name": "Novosibirsk",
    "lat": 55.02259,
    "lon": 82.93175
  },
  {
    "name": "Erbil",
    "lat": 36.19117,
    "lon": 44.00943
  },
  {
    "name": "Fukuoka",
    "lat": 33.6,
    "lon": 130.41667
  },
  {
    "name": "Taizhou",
    "lat": 32.49069,
    "lon": 119.90812
  },
  {
    "name": "Daqing",
    "lat": 46.58333,
    "lon": 125.0
  },
  {
    "name": "Manila",
    "lat": 14.6042,
    "lon": 120.9822
  },
  {
    "name": "Wuhu",
    "lat": 31.35259,
    "lon": 118.42947
  },
  {
    "name": "Santiago de Querétaro",
    "lat": 20.58806,
    "lon": -100.38806
  },
  {
    "name": "Dazhou",
    "lat": 31.2106,
    "lon": 107.46308
  },
  {
    "name": "Yangzhou",
    "lat": 32.39722,
    "lon": 119.43583
  },
  {
    "name": "León de los Aldama",
    "lat": 21.12908,
    "lon": -101.67374
  },
  {
    "name": "Makkah",
    "lat": 21.42664,
    "lon": 39.82563
  },
  {
    "name": "Philadelphia",
    "lat": 39.95238,
    "lon": -75.16362
  },
  {
    "name": "Phnom Penh",
    "lat": 11.56245,
    "lon": 104.91601
  },
  {
    "name": "Guilin",
    "lat": 25.28022,
    "lon": 110.29639
  },
  {
    "name": "Damascus",
    "lat": 33.5102,
    "lon": 36.29128
  },
  {
    "name": "Quetta",
    "lat": 30.18414,
    "lon": 67.00141
  },
  {
    "name": "Zhaoqing",
    "lat": 23.04893,
    "lon": 112.46091
  },
  {
    "name": "Onitsha",
    "lat": 6.14978,
    "lon": 6.78569
  },
  {
    "name": "Mianyang",
    "lat": 31.46784,
    "lon": 104.68168
  },
  {
    "name": "Isfahan",
    "lat": 32.65246,
    "lon": 51.67462
  },
  {
    "name": "Wanzhou",
    "lat": 30.76451,
    "lon": 108.39586
  },
  {
    "name": "Harare",
    "lat": -17.82772,
    "lon": 31.05337
  },
  {
    "name": "Monrovia",
    "lat": 6.30054,
    "lon": -10.7969
  },
  {
    "name": "Putian",
    "lat": 25.43944,
    "lon": 119.01028
  },
  {
    "name": "Kawasaki",
    "lat": 35.52056,
    "lon": 139.71722
  },
  {
    "name": "Shangqiu",
    "lat": 34.45,
    "lon": 115.65
  },
  {
    "name": "Goiânia",
    "lat": -16.67861,
    "lon": -49.25389
  },
  {
    "name": "Auckland",
    "lat": -36.84853,
    "lon": 174.76349
  },
  {
    "name": "San Antonio",
    "lat": 29.42412,
    "lon": -98.49363
  },
  {
    "name": "Kobe",
    "lat": 34.6913,
    "lon": 135.183
  },
  {
    "name": "Stockholm",
    "lat": 59.32938,
    "lon": 18.06871
  },
  {
    "name": "Ciudad Juárez",
    "lat": 31.72024,
    "lon": -106.46084
  },
  {
    "name": "Cần Thơ",
    "lat": 10.03711,
    "lon": 105.78825
  },
  {
    "name": "Khulna",
    "lat": 22.80979,
    "lon": 89.56439
  },
  {
    "name": "Belém",
    "lat": -1.45583,
    "lon": -48.50444
  },
  {
    "name": "Yekaterinburg",
    "lat": 56.85733,
    "lon": 60.61529
  },
  {
    "name": "Porto Alegre",
    "lat": -30.03283,
    "lon": -51.23019
  },
  {
    "name": "Yinchuan",
    "lat": 38.46806,
    "lon": 106.27306
  },
  {
    "name": "Manhattan",
    "lat": 40.78343,
    "lon": -73.96625
  },
  {
    "name": "Nashik",
    "lat": 19.99727,
    "lon": 73.79096
  },
  {
    "name": "Taizhou",
    "lat": 28.66266,
    "lon": 121.43312
  },
  {
    "name": "Asunción",
    "lat": -25.28646,
    "lon": -57.647
  },
  {
    "name": "Yiwu",
    "lat": 29.31506,
    "lon": 120.07676
  },
  {
    "name": "Zapopan",
    "lat": 20.72111,
    "lon": -103.38742
  },
  {
    "name": "Daejeon",
    "lat": 36.34913,
    "lon": 127.38493
  },
  {
    "name": "Adelaide",
    "lat": -34.92866,
    "lon": 138.59863
  },
  {
    "name": "Quanzhou",
    "lat": 24.91389,
    "lon": 118.58583
  },
  {
    "name": "Madurai",
    "lat": 9.919,
    "lon": 78.11953
  },
  {
    "name": "Jinhua",
    "lat": 29.10678,
    "lon": 119.64421
  },
  {
    "name": "Kyoto",
    "lat": 35.02107,
    "lon": 135.75385
  },
  {
    "name": "Cixi",
    "lat": 30.1764,
    "lon": 121.2457
  },
  {
    "name": "Changde",
    "lat": 29.03205,
    "lon": 111.69844
  },
  {
    "name": "Kuala Lumpur",
    "lat": 3.1412,
    "lon": 101.68653
  },
  {
    "name": "Kaifeng",
    "lat": 34.7986,
    "lon": 114.30742
  },
  {
    "name": "Anshan",
    "lat": 41.12361,
    "lon": 122.99
  },
  {
    "name": "Karaj",
    "lat": 35.83266,
    "lon": 50.99155
  },
  {
    "name": "Kathmandu",
    "lat": 27.70169,
    "lon": 85.3206
  },
  {
    "name": "Baoji",
    "lat": 34.36775,
    "lon": 107.23705
  },
  {
    "name": "Suqian",
    "lat": 33.94917,
    "lon": 118.29583
  },
  {
    "name": "Liuzhou",
    "lat": 24.32405,
    "lon": 109.40698
  },
  {
    "name": "Tirunelveli",
    "lat": 8.72742,
    "lon": 77.6838
  },
  {
    "name": "Kayseri",
    "lat": 38.73222,
    "lon": 35.48528
  },
  {
    "name": "Kharkiv",
    "lat": 49.98177,
    "lon": 36.25475
  },
  {
    "name": "Konya",
    "lat": 37.87135,
    "lon": 32.48464
  },
  {
    "name": "Zhangjiagang",
    "lat": 31.865,
    "lon": 120.53889
  },
  {
    "name": "Agra",
    "lat": 27.18333,
    "lon": 78.01667
  },
  {
    "name": "Tabriz",
    "lat": 38.08,
    "lon": 46.2919
  },
  {
    "name": "Makassar",
    "lat": -5.14861,
    "lon": 119.43194
  },
  {
    "name": "Jinjiang",
    "lat": 24.81978,
    "lon": 118.57415
  },
  {
    "name": "Faridabad",
    "lat": 28.41124,
    "lon": 77.31316
  },
  {
    "name": "Bozhou",
    "lat": 33.87722,
    "lon": 115.77028
  },
  {
    "name": "Qujing",
    "lat": 25.48333,
    "lon": 103.78333
  },
  {
    "name": "South Tangerang",
    "lat": -6.28862,
    "lon": 106.71789
  },
  {
    "name": "San Diego",
    "lat": 32.71571,
    "lon": -117.16472
  },
  {
    "name": "Zhanjiang",
    "lat": 21.23391,
    "lon": 110.38749
  },
  {
    "name": "Fushun",
    "lat": 41.88669,
    "lon": 123.94363
  },
  {
    "name": "Gwangju",
    "lat": 35.15472,
    "lon": 126.91556
  },
  {
    "name": "Rājkot",
    "lat": 22.29161,
    "lon": 70.79322
  },
  {
    "name": "Luoyang",
    "lat": 34.67345,
    "lon": 112.43684
  },
  {
    "name": "Guadalajara",
    "lat": 20.67738,
    "lon": -103.34749
  },
  {
    "name": "The Bronx",
    "lat": 40.84985,
    "lon": -73.86641
  },
  {
    "name": "Guankou",
    "lat": 28.15861,
    "lon": 113.62709
  },
  {
    "name": "Huế",
    "lat": 16.4619,
    "lon": 107.59546
  },
  {
    "name": "Milan",
    "lat": 45.46427,
    "lon": 9.18951
  },
  {
    "name": "Najafgarh",
    "lat": 28.60922,
    "lon": 76.97982
  },
  {
    "name": "N'Djamena",
    "lat": 12.10672,
    "lon": 15.0444
  },
  {
    "name": "Handan",
    "lat": 36.60999,
    "lon": 114.48764
  },
  {
    "name": "Bannu",
    "lat": 32.98527,
    "lon": 70.60403
  },
  {
    "name": "Yichang",
    "lat": 30.71444,
    "lon": 111.28472
  },
  {
    "name": "Antananarivo",
    "lat": -18.91368,
    "lon": 47.53613
  },
  {
    "name": "Heze",
    "lat": 35.23929,
    "lon": 115.47358
  },
  {
    "name": "Antalya",
    "lat": 36.90812,
    "lon": 30.69556
  },
  {
    "name": "Abobo",
    "lat": 5.41613,
    "lon": -4.0159
  },
  {
    "name": "Jamshedpur",
    "lat": 22.80278,
    "lon": 86.18545
  },
  {
    "name": "Douala",
    "lat": 4.04827,
    "lon": 9.70428
  },
  {
    "name": "Basrah",
    "lat": 30.50852,
    "lon": 47.7804
  },
  {
    "name": "Dallas",
    "lat": 32.78306,
    "lon": -96.80667
  },
  {
    "name": "Saitama",
    "lat": 35.90807,
    "lon": 139.65657
  },
  {
    "name": "Gorakhpur",
    "lat": 29.44768,
    "lon": 75.67206
  },
  {
    "name": "Niamey",
    "lat": 13.51366,
    "lon": 2.1098
  },
  {
    "name": "Liupanshui",
    "lat": 26.59444,
    "lon": 104.83333
  },
  {
    "name": "Taguig",
    "lat": 14.5243,
    "lon": 121.0792
  },
  {
    "name": "Maoming",
    "lat": 21.66625,
    "lon": 110.91364
  },
  {
    "name": "Calgary",
    "lat": 51.05011,
    "lon": -114.08529
  },
  {
    "name": "Tripoli",
    "lat": 32.88743,
    "lon": 13.18733
  },
  {
    "name": "Callao",
    "lat": -12.05162,
    "lon": -77.13452
  },
  {
    "name": "Madinah",
    "lat": 24.46861,
    "lon": 39.61417
  },
  {
    "name": "Yaoundé",
    "lat": 3.86667,
    "lon": 11.51667
  },
  {
    "name": "Qinzhou",
    "lat": 21.98247,
    "lon": 108.65061
  },
  {
    "name": "Luohe",
    "lat": 33.56394,
    "lon": 114.04272
  },
  {
    "name": "Xiangyang",
    "lat": 32.0422,
    "lon": 112.14479
  },
  {
    "name": "Yangjiang",
    "lat": 21.85563,
    "lon": 111.96272
  },
  {
    "name": "Yixing",
    "lat": 31.36059,
    "lon": 119.82016
  },
  {
    "name": "Pimpri",
    "lat": 18.62292,
    "lon": 73.80696
  },
  {
    "name": "Da Nang",
    "lat": 16.06778,
    "lon": 108.22083
  },
  {
    "name": "Amman",
    "lat": 31.95522,
    "lon": 35.94503
  },
  {
    "name": "Budta",
    "lat": 7.20417,
    "lon": 124.43972
  },
  {
    "name": "Belgrade",
    "lat": 44.80401,
    "lon": 20.46513
  },
  {
    "name": "Biên Hòa",
    "lat": 10.94469,
    "lon": 106.82432
  },
  {
    "name": "Montevideo",
    "lat": -34.90328,
    "lon": -56.18816
  },
  {
    "name": "Xuchang",
    "lat": 34.03189,
    "lon": 113.86299
  },
  {
    "name": "Kalyān",
    "lat": 19.2437,
    "lon": 73.13554
  },
  {
    "name": "Zigong",
    "lat": 29.34162,
    "lon": 104.77689
  },
  {
    "name": "Munich",
    "lat": 48.13743,
    "lon": 11.57549
  },
  {
    "name": "Nizhniy Novgorod",
    "lat": 56.32867,
    "lon": 44.00205
  },
  {
    "name": "Jepara",
    "lat": -6.5924,
    "lon": 110.671
  },
  {
    "name": "Maputo",
    "lat": -25.96553,
    "lon": 32.58322
  },
  {
    "name": "Xuzhou",
    "lat": 34.20442,
    "lon": 117.28386
  },
  {
    "name": "Dammam",
    "lat": 26.43442,
    "lon": 50.10326
  },
  {
    "name": "Ra’s Bayrūt",
    "lat": 33.9,
    "lon": 35.48333
  },
  {
    "name": "Neijiang",
    "lat": 29.58354,
    "lon": 105.06216
  },
  {
    "name": "Shiraz",
    "lat": 29.61031,
    "lon": 52.53113
  },
  {
    "name": "Heshan",
    "lat": 28.56938,
    "lon": 112.34733
  },
  {
    "name": "Dombivali",
    "lat": 19.21667,
    "lon": 73.08333
  },
  {
    "name": "Kananga",
    "lat": -5.89624,
    "lon": 22.41659
  },
  {
    "name": "Kazan",
    "lat": 55.78874,
    "lon": 49.12214
  },
  {
    "name": "Jining",
    "lat": 35.405,
    "lon": 116.58139
  },
  {
    "name": "Barquisimeto",
    "lat": 10.0647,
    "lon": -69.35703
  },
  {
    "name": "Shubrā al Khaymah",
    "lat": 30.12511,
    "lon": 31.25053
  },
  {
    "name": "Port-au-Prince",
    "lat": 18.54349,
    "lon": -72.33881
  },
  {
    "name": "Xinyang",
    "lat": 32.12278,
    "lon": 114.06556
  },
  {
    "name": "Liaocheng",
    "lat": 36.45064,
    "lon": 116.00247
  },
  {
    "name": "Jinzhong",
    "lat": 37.68403,
    "lon": 112.75471
  },
  {
    "name": "Meerut",
    "lat": 28.98002,
    "lon": 77.70636
  },
  {
    "name": "Virār",
    "lat": 19.45591,
    "lon": 72.81136
  },
  {
    "name": "Nowrangapur",
    "lat": 19.23114,
    "lon": 82.54826
  },
  {
    "name": "Karbala",
    "lat": 32.61603,
    "lon": 44.02488
  },
  {
    "name": "Changzhi",
    "lat": 36.18389,
    "lon": 113.10528
  },
  {
    "name": "Tianshui",
    "lat": 34.57952,
    "lon": 105.74238
  },
  {
    "name": "Mombasa",
    "lat": -4.05466,
    "lon": 39.66359
  },
  {
    "name": "Mandalay",
    "lat": 21.97473,
    "lon": 96.08359
  },
  {
    "name": "Srinagar",
    "lat": 34.08565,
    "lon": 74.80555
  },
  {
    "name": "Barranquilla",
    "lat": 10.96854,
    "lon": -74.78132
  },
  {
    "name": "Chelyabinsk",
    "lat": 55.1611,
    "lon": 61.42877
  },
  {
    "name": "Mérida",
    "lat": 20.967,
    "lon": -89.62318
  },
  {
    "name": "Hiroshima",
    "lat": 34.4,
    "lon": 132.45
  },
  {
    "name": "Santiago de los Caballeros",
    "lat": 19.45036,
    "lon": -70.69085
  },
  {
    "name": "Shymkent",
    "lat": 42.30988,
    "lon": 69.60042
  },
  {
    "name": "Weinan",
    "lat": 34.50355,
    "lon": 109.50891
  },
  {
    "name": "Ghāziābād",
    "lat": 28.66535,
    "lon": 77.43915
  },
  {
    "name": "Matola",
    "lat": -25.96222,
    "lon": 32.45889
  },
  {
    "name": "Dhanbad",
    "lat": 23.79759,
    "lon": 86.42992
  },
  {
    "name": "Hong Kong Island",
    "lat": 22.26302,
    "lon": 114.18419
  },
  {
    "name": "Fes",
    "lat": 34.03313,
    "lon": -5.00028
  },
  {
    "name": "Suwon",
    "lat": 37.29111,
    "lon": 127.00889
  },
  {
    "name": "Gustavo Adolfo Madero",
    "lat": 19.49392,
    "lon": -99.11075
  },
  {
    "name": "Nouakchott",
    "lat": 18.08581,
    "lon": -15.9785
  },
  {
    "name": "Kisangani",
    "lat": 0.51528,
    "lon": 25.19099
  },
  {
    "name": "Jiaxing",
    "lat": 30.7522,
    "lon": 120.75
  },
  {
    "name": "Aurangabad",
    "lat": 19.87757,
    "lon": 75.34226
  },
  {
    "name": "Omsk",
    "lat": 54.99244,
    "lon": 73.36859
  },
  {
    "name": "Guarulhos",
    "lat": -23.46278,
    "lon": -46.53333
  },
  {
    "name": "Bandar Lampung",
    "lat": -5.42917,
    "lon": 105.26111
  },
  {
    "name": "Prague",
    "lat": 50.08804,
    "lon": 14.42076
  },
  {
    "name": "Varanasi",
    "lat": 25.31668,
    "lon": 83.01041
  },
  {
    "name": "Batam",
    "lat": 1.14937,
    "lon": 104.02491
  },
  {
    "name": "Jiujiang",
    "lat": 29.70475,
    "lon": 116.00206
  },
  {
    "name": "Samara",
    "lat": 53.20767,
    "lon": 50.13553
  },
  {
    "name": "Aba",
    "lat": 5.10658,
    "lon": 7.36667
  },
  {
    "name": "Amritsar",
    "lat": 31.62234,
    "lon": 74.87534
  },
  {
    "name": "Birmingham",
    "lat": 52.48142,
    "lon": -1.89983
  },
  {
    "name": "Copenhagen",
    "lat": 55.67594,
    "lon": 12.56553
  },
  {
    "name": "Sofia",
    "lat": 42.69751,
    "lon": 23.32415
  },
  {
    "name": "Anyang",
    "lat": 36.096,
    "lon": 114.38278
  },
  {
    "name": "Yerevan",
    "lat": 40.17765,
    "lon": 44.5126
  },
  {
    "name": "Luohu District",
    "lat": 22.54721,
    "lon": 114.13149
  },
  {
    "name": "Vijayawada",
    "lat": 16.50745,
    "lon": 80.6466
  },
  {
    "name": "Bijie",
    "lat": 27.30193,
    "lon": 105.28627
  },
  {
    "name": "Monterrey",
    "lat": 25.68435,
    "lon": -100.31721
  },
  {
    "name": "Kigali",
    "lat": -1.94995,
    "lon": 30.05885
  },
  {
    "name": "Rostov-na-Donu",
    "lat": 47.21997,
    "lon": 39.70769
  },
  {
    "name": "Zhuzhou",
    "lat": 27.83333,
    "lon": 113.15
  },
  {
    "name": "Bogor",
    "lat": -6.59444,
    "lon": 106.78917
  },
  {
    "name": "Malingao",
    "lat": 7.16083,
    "lon": 124.475
  },
  {
    "name": "Touba",
    "lat": 14.86229,
    "lon": -15.87532
  },
  {
    "name": "Ufa",
    "lat": 54.74306,
    "lon": 55.96779
  },
  {
    "name": "Ranchi",
    "lat": 23.34316,
    "lon": 85.3094
  },
  {
    "name": "Baku",
    "lat": 40.37767,
    "lon": 49.89201
  },
  {
    "name": "Shangrao",
    "lat": 28.45179,
    "lon": 117.94287
  },
  {
    "name": "Lilongwe",
    "lat": -13.96692,
    "lon": 33.78725
  },
  {
    "name": "Huaibei",
    "lat": 33.97444,
    "lon": 116.79167
  },
  {
    "name": "Maiduguri",
    "lat": 11.84692,
    "lon": 13.15712
  },
  {
    "name": "Meishan",
    "lat": 30.04392,
    "lon": 103.83696
  },
  {
    "name": "Mwanza",
    "lat": -2.51667,
    "lon": 32.9
  },
  {
    "name": "Sendai",
    "lat": 38.26667,
    "lon": 140.86667
  },
  {
    "name": "Ulsan",
    "lat": 35.53722,
    "lon": 129.31667
  },
  {
    "name": "Krasnoyarsk",
    "lat": 56.03742,
    "lon": 92.93136
  },
  {
    "name": "Fuzhou",
    "lat": 27.95999,
    "lon": 116.33333
  },
  {
    "name": "Guigang",
    "lat": 23.11603,
    "lon": 109.59472
  },
  {
    "name": "Pekanbaru",
    "lat": 0.51667,
    "lon": 101.44167
  },
  {
    "name": "Oslo",
    "lat": 59.91273,
    "lon": 10.74609
  },
  {
    "name": "Jabalpur",
    "lat": 23.16697,
    "lon": 79.95006
  },
  {
    "name": "Ilorin",
    "lat": 8.49664,
    "lon": 4.54214
  },
  {
    "name": "Aden",
    "lat": 12.77957,
    "lon": 45.03852
  },
  {
    "name": "Ciudad Nezahualcoyotl",
    "lat": 19.40061,
    "lon": -99.01483
  },
  {
    "name": "Hengyang",
    "lat": 26.88946,
    "lon": 112.61888
  },
  {
    "name": "Prayagraj",
    "lat": 25.44478,
    "lon": 81.84322
  },
  {
    "name": "Visakhapatnam",
    "lat": 17.68009,
    "lon": 83.20161
  },
  {
    "name": "Goyang-si",
    "lat": 37.65639,
    "lon": 126.835
  },
  {
    "name": "Yulin",
    "lat": 22.6305,
    "lon": 110.14686
  },
  {
    "name": "Jodhpur",
    "lat": 26.26841,
    "lon": 73.00594
  },
  {
    "name": "Gwalior",
    "lat": 26.22983,
    "lon": 78.17337
  },
  {
    "name": "Jingzhou",
    "lat": 30.35028,
    "lon": 112.19028
  },
  {
    "name": "Gqeberha",
    "lat": -33.96109,
    "lon": 25.61494
  },
  {
    "name": "Tbilisi",
    "lat": 41.69143,
    "lon": 44.83412
  },
  {
    "name": "Voronezh",
    "lat": 51.66833,
    "lon": 39.19204
  },
  {
    "name": "Xinxiang",
    "lat": 35.19033,
    "lon": 113.80151
  },
  {
    "name": "Yichun",
    "lat": 27.83333,
    "lon": 114.4
  },
  {
    "name": "Sokoto",
    "lat": 13.06269,
    "lon": 5.24322
  },
  {
    "name": "Jos",
    "lat": 9.92849,
    "lon": 8.89212
  },
  {
    "name": "Tangier",
    "lat": 35.76727,
    "lon": -5.79975
  },
  {
    "name": "Teni",
    "lat": 10.01115,
    "lon": 77.47772
  },
  {
    "name": "Xianyang",
    "lat": 34.33778,
    "lon": 108.70261
  },
  {
    "name": "Mexicali",
    "lat": 32.62781,
    "lon": -115.45446
  },
  {
    "name": "Pointe-Noire",
    "lat": -4.77609,
    "lon": 11.86352
  },
  {
    "name": "Maceió",
    "lat": -9.66583,
    "lon": -35.73528
  },
  {
    "name": "Campinas",
    "lat": -22.90556,
    "lon": -47.06083
  },
  {
    "name": "Sanya",
    "lat": 18.25435,
    "lon": 109.50947
  },
  {
    "name": "Rangpur",
    "lat": 25.74664,
    "lon": 89.25166
  },
  {
    "name": "Kirkuk",
    "lat": 35.46806,
    "lon": 44.39222
  },
  {
    "name": "Comilla",
    "lat": 23.46186,
    "lon": 91.18503
  },
  {
    "name": "Shaoguan",
    "lat": 24.8,
    "lon": 113.58333
  },
  {
    "name": "Howrah",
    "lat": 22.57688,
    "lon": 88.31857
  },
  {
    "name": "Raipur",
    "lat": 21.23333,
    "lon": 81.63333
  },
  {
    "name": "Changwon",
    "lat": 35.22806,
    "lon": 128.68111
  },
  {
    "name": "Longyan",
    "lat": 25.07485,
    "lon": 117.01775
  },
  {
    "name": "Dublin",
    "lat": 53.33306,
    "lon": -6.24889
  },
  {
    "name": "Tiruchirappalli",
    "lat": 10.8155,
    "lon": 78.69651
  },
  {
    "name": "Yongzhou",
    "lat": 26.42389,
    "lon": 111.61306
  },
  {
    "name": "Brussels",
    "lat": 50.85045,
    "lon": 4.34878
  },
  {
    "name": "Zamboanga",
    "lat": 6.91028,
    "lon": 122.07389
  },
  {
    "name": "Ottawa",
    "lat": 45.41117,
    "lon": -75.69812
  },
  {
    "name": "Huzhou",
    "lat": 30.8703,
    "lon": 120.0933
  },
  {
    "name": "Odesa",
    "lat": 46.48572,
    "lon": 30.74383
  },
  {
    "name": "Volgograd",
    "lat": 48.71378,
    "lon": 44.4976
  },
  {
    "name": "Khartoum North",
    "lat": 15.64925,
    "lon": 32.53458
  },
  {
    "name": "Edmonton",
    "lat": 53.55014,
    "lon": -113.46871
  },
  {
    "name": "Wuwei",
    "lat": 37.92672,
    "lon": 102.63202
  },
  {
    "name": "Jacksonville",
    "lat": 30.33218,
    "lon": -81.65565
  },
  {
    "name": "Arequipa",
    "lat": -16.39899,
    "lon": -71.53747
  },
  {
    "name": "Fort Worth",
    "lat": 32.72541,
    "lon": -97.32085
  },
  {
    "name": "Hanzhong",
    "lat": 33.07507,
    "lon": 107.02214
  },
  {
    "name": "Hezhou",
    "lat": 24.40357,
    "lon": 111.56675
  },
  {
    "name": "Kota",
    "lat": 25.18254,
    "lon": 75.83907
  },
  {
    "name": "Zhu Cheng City",
    "lat": 35.99502,
    "lon": 119.40259
  },
  {
    "name": "Shivaji Nagar",
    "lat": 18.53017,
    "lon": 73.85263
  },
  {
    "name": "Dongying",
    "lat": 37.46271,
    "lon": 118.49165
  },
  {
    "name": "Luzhou",
    "lat": 28.8903,
    "lon": 105.42575
  },
  {
    "name": "San Jose",
    "lat": 37.33939,
    "lon": -121.89496
  },
  {
    "name": "Sholapur",
    "lat": 17.67152,
    "lon": 75.91044
  },
  {
    "name": "Marrakesh",
    "lat": 31.63416,
    "lon": -7.99994
  },
  {
    "name": "Guatemala City",
    "lat": 14.64072,
    "lon": -90.51327
  },
  {
    "name": "Meizhou",
    "lat": 24.28859,
    "lon": 116.11768
  },
  {
    "name": "Yueyang",
    "lat": 29.37455,
    "lon": 113.09481
  },
  {
    "name": "Laiwu",
    "lat": 36.19278,
    "lon": 117.65694
  },
  {
    "name": "Benxi",
    "lat": 41.28861,
    "lon": 123.765
  },
  {
    "name": "Perm",
    "lat": 58.01046,
    "lon": 56.25017
  },
  {
    "name": "Zaria",
    "lat": 11.11128,
    "lon": 7.7227
  },
  {
    "name": "Chiba",
    "lat": 35.6,
    "lon": 140.11667
  },
  {
    "name": "Pingdingshan",
    "lat": 33.73091,
    "lon": 113.31554
  },
  {
    "name": "Ciudad Guayana",
    "lat": 8.35122,
    "lon": -62.64102
  },
  {
    "name": "Sargodha",
    "lat": 32.08586,
    "lon": 72.67418
  },
  {
    "name": "Austin",
    "lat": 30.26715,
    "lon": -97.74306
  },
  {
    "name": "Managua",
    "lat": 12.13282,
    "lon": -86.2504
  },
  {
    "name": "Bengbu",
    "lat": 32.94083,
    "lon": 117.36083
  },
  {
    "name": "Salé",
    "lat": 34.0531,
    "lon": -6.79846
  },
  {
    "name": "Jerusalem",
    "lat": 31.76904,
    "lon": 35.21633
  },
  {
    "name": "Chandigarh",
    "lat": 30.73629,
    "lon": 76.7884
  },
  {
    "name": "Dnipro",
    "lat": 48.46664,
    "lon": 35.04066
  },
  {
    "name": "Cebu City",
    "lat": 10.31672,
    "lon": 123.89071
  },
  {
    "name": "Sanhe",
    "lat": 39.98049,
    "lon": 117.06887
  },
  {
    "name": "Köln",
    "lat": 50.93333,
    "lon": 6.95
  },
  {
    "name": "Tiruppur",
    "lat": 11.11541,
    "lon": 77.35456
  },
  {
    "name": "Guwahati",
    "lat": 26.1844,
    "lon": 91.7458
  },
  {
    "name": "Xiangtan",
    "lat": 27.85,
    "lon": 112.9
  },
  {
    "name": "Linfen",
    "lat": 36.08889,
    "lon": 111.51889
  },
  {
    "name": "Victoria",
    "lat": 22.2875,
    "lon": 114.14417
  },
  {
    "name": "Zhenjiang",
    "lat": 32.21086,
    "lon": 119.45508
  },
  {
    "name": "Enugu",
    "lat": 6.44132,
    "lon": 7.49883
  },
  {
    "name": "Rosario",
    "lat": -32.94682,
    "lon": -60.63932
  },
  {
    "name": "Sulţānah",
    "lat": 24.49258,
    "lon": 39.58572
  },
  {
    "name": "Huludao",
    "lat": 40.75243,
    "lon": 120.83552
  },
  {
    "name": "Hubballi",
    "lat": 15.34776,
    "lon": 75.13378
  },
  {
    "name": "Kitakyushu",
    "lat": 33.85181,
    "lon": 130.85034
  },
  {
    "name": "Taiz",
    "lat": 13.57952,
    "lon": 44.02091
  },
  {
    "name": "Setagaya",
    "lat": 35.64188,
    "lon": 139.64715
  },
  {
    "name": "Kingston",
    "lat": 17.99702,
    "lon": -76.79358
  },
  {
    "name": "Baoshan",
    "lat": 25.11626,
    "lon": 99.16366
  },
  {
    "name": "Rui’an",
    "lat": 27.77605,
    "lon": 120.65859
  },
  {
    "name": "Chihuahua",
    "lat": 28.63528,
    "lon": -106.08889
  },
  {
    "name": "Nay Pyi Taw",
    "lat": 19.745,
    "lon": 96.12972
  },
  {
    "name": "Mysuru",
    "lat": 12.29791,
    "lon": 76.63925
  },
  {
    "name": "Trujillo",
    "lat": -8.11599,
    "lon": -79.02998
  },
  {
    "name": "Salem",
    "lat": 11.65376,
    "lon": 78.15538
  },
  {
    "name": "São Luís",
    "lat": -2.52972,
    "lon": -44.30278
  },
  {
    "name": "Seongnam-si",
    "lat": 37.43861,
    "lon": 127.13778
  },
  {
    "name": "Cartagena",
    "lat": 10.39817,
    "lon": -75.49328
  },
  {
    "name": "Antipolo",
    "lat": 14.62578,
    "lon": 121.12251
  },
  {
    "name": "Columbus",
    "lat": 39.96118,
    "lon": -82.99879
  },
  {
    "name": "Sialkot",
    "lat": 32.49268,
    "lon": 74.53134
  },
  {
    "name": "Charlotte",
    "lat": 35.22709,
    "lon": -80.84313
  },
  {
    "name": "Laibin",
    "lat": 23.74743,
    "lon": 109.22222
  },
  {
    "name": "Warri",
    "lat": 5.51737,
    "lon": 5.75006
  },
  {
    "name": "Naples",
    "lat": 40.85216,
    "lon": 14.26811
  },
  {
    "name": "Padang",
    "lat": -0.94924,
    "lon": 100.35427
  },
  {
    "name": "Xiaogan",
    "lat": 30.92689,
    "lon": 113.92221
  },
  {
    "name": "Campo Grande",
    "lat": -20.44278,
    "lon": -54.64639
  },
  {
    "name": "Ziyang",
    "lat": 30.12108,
    "lon": 104.64811
  },
  {
    "name": "Bobo-Dioulasso",
    "lat": 11.18064,
    "lon": -4.29489
  },
  {
    "name": "Bahawalpur",
    "lat": 29.39779,
    "lon": 71.6752
  },
  {
    "name": "Quzhou",
    "lat": 28.95944,
    "lon": 118.86861
  },
  {
    "name": "Blantyre",
    "lat": -15.78499,
    "lon": 35.00854
  },
  {
    "name": "Donetsk",
    "lat": 48.023,
    "lon": 37.80224
  },
  {
    "name": "Abū Ghurayb",
    "lat": 33.30563,
    "lon": 44.18477
  },
  {
    "name": "Qom",
    "lat": 34.6401,
    "lon": 50.8764
  },
  {
    "name": "Bishkek",
    "lat": 42.87,
    "lon": 74.59
  },
  {
    "name": "Zaozhuang",
    "lat": 34.86472,
    "lon": 117.55417
  },
  {
    "name": "Krasnodar",
    "lat": 45.04534,
    "lon": 38.98178
  },
  {
    "name": "Natal",
    "lat": -5.795,
    "lon": -35.20944
  },
  {
    "name": "Pingxiang",
    "lat": 27.61672,
    "lon": 113.85353
  },
  {
    "name": "Cancún",
    "lat": 21.17429,
    "lon": -86.84656
  },
  {
    "name": "Indianapolis",
    "lat": 39.76838,
    "lon": -86.15804
  },
  {
    "name": "Gurugram",
    "lat": 28.4601,
    "lon": 77.02635
  },
  {
    "name": "Bhubaneswar",
    "lat": 20.27241,
    "lon": 85.83385
  },
  {
    "name": "Zhoushan",
    "lat": 29.98869,
    "lon": 122.20488
  },
  {
    "name": "Qiqihar",
    "lat": 47.33922,
    "lon": 123.96154
  },
  {
    "name": "Sulaymaniyah",
    "lat": 35.56496,
    "lon": 45.4329
  },
  {
    "name": "Marseille",
    "lat": 43.29695,
    "lon": 5.38107
  },
  {
    "name": "Puning",
    "lat": 23.31072,
    "lon": 116.16869
  },
  {
    "name": "Pikine",
    "lat": 14.76457,
    "lon": -17.39071
  },
  {
    "name": "Bhiwandi",
    "lat": 19.30023,
    "lon": 73.05881
  },
  {
    "name": "Soshanguve",
    "lat": -25.47288,
    "lon": 28.09919
  },
  {
    "name": "Teresina",
    "lat": -5.08917,
    "lon": -42.80194
  },
  {
    "name": "Ankang",
    "lat": 32.68,
    "lon": 109.01722
  },
  {
    "name": "Jalandhar",
    "lat": 31.32556,
    "lon": 75.57917
  },
  {
    "name": "Rotterdam",
    "lat": 51.9225,
    "lon": 4.47917
  },
  {
    "name": "Langfang",
    "lat": 39.52079,
    "lon": 116.71471
  },
  {
    "name": "Jiaozuo",
    "lat": 35.23925,
    "lon": 113.23914
  },
  {
    "name": "Rohini",
    "lat": 28.74322,
    "lon": 77.06778
  },
  {
    "name": "Wanxian",
    "lat": 30.81601,
    "lon": 108.37407
  },
  {
    "name": "Guang’an",
    "lat": 30.47413,
    "lon": 106.63696
  },
  {
    "name": "Johor Bahru",
    "lat": 1.4655,
    "lon": 103.7578
  },
  {
    "name": "Cheongju-si",
    "lat": 36.63722,
    "lon": 127.48972
  },
  {
    "name": "Pasig City",
    "lat": 14.58691,
    "lon": 121.0614
  },
  {
    "name": "Kanayannur",
    "lat": 9.96667,
    "lon": 76.26667
  },
  {
    "name": "Tegucigalpa",
    "lat": 14.0818,
    "lon": -87.20681
  },
  {
    "name": "Bucheon-si",
    "lat": 37.49889,
    "lon": 126.78306
  },
  {
    "name": "Thanh Hóa",
    "lat": 19.8,
    "lon": 105.76667
  },
  {
    "name": "Turin",
    "lat": 45.07049,
    "lon": 7.68682
  },
  {
    "name": "Malang",
    "lat": -7.9797,
    "lon": 112.6304
  },
  {
    "name": "Al Ain City",
    "lat": 24.19167,
    "lon": 55.76056
  },
  {
    "name": "Libreville",
    "lat": 0.39241,
    "lon": 9.45356
  },
  {
    "name": "Saratov",
    "lat": 51.54048,
    "lon": 45.9901
  },
  {
    "name": "Ulan Bator",
    "lat": 47.90771,
    "lon": 106.88324
  },
  {
    "name": "Weihai",
    "lat": 37.50914,
    "lon": 122.11356
  },
  {
    "name": "Takeo",
    "lat": 10.99081,
    "lon": 104.78498
  },
  {
    "name": "Cochabamba",
    "lat": -17.38195,
    "lon": -66.15995
  },
  {
    "name": "Ahvaz",
    "lat": 31.31901,
    "lon": 48.6842
  },
  {
    "name": "Zhabei",
    "lat": 31.25861,
    "lon": 121.45972
  },
  {
    "name": "Xinyu",
    "lat": 27.80429,
    "lon": 114.93335
  },
  {
    "name": "Pietermaritzburg",
    "lat": -29.61679,
    "lon": 30.39278
  },
  {
    "name": "Yibin",
    "lat": 28.7593,
    "lon": 104.63994
  },
  {
    "name": "Naucalpan de Juárez",
    "lat": 19.47851,
    "lon": -99.23963
  },
  {
    "name": "Kampung Baru Subang",
    "lat": 3.15,
    "lon": 101.53333
  },
  {
    "name": "Bouaké",
    "lat": 7.69385,
    "lon": -5.03031
  },
  {
    "name": "Samarinda",
    "lat": -0.49167,
    "lon": 117.14583
  },
  {
    "name": "Taicang",
    "lat": 31.44778,
    "lon": 121.09389
  },
  {
    "name": "San Francisco",
    "lat": 37.77493,
    "lon": -122.41942
  },
  {
    "name": "Sakai",
    "lat": 34.58216,
    "lon": 135.46653
  },
  {
    "name": "Valencia",
    "lat": 39.47391,
    "lon": -0.37966
  },
  {
    "name": "Nova Iguaçu",
    "lat": -22.75917,
    "lon": -43.45111
  },
  {
    "name": "Chenzhou",
    "lat": 25.8,
    "lon": 113.03333
  },
  {
    "name": "Duque de Caxias",
    "lat": -22.78556,
    "lon": -43.31167
  },
  {
    "name": "João Pessoa",
    "lat": -7.115,
    "lon": -34.86306
  },
  {
    "name": "Bukavu",
    "lat": -2.49077,
    "lon": 28.84281
  },
  {
    "name": "Barcelona",
    "lat": 10.1384,
    "lon": -64.68769
  },
  {
    "name": "Bangui",
    "lat": 4.36122,
    "lon": 18.55496
  },
  {
    "name": "Hermosillo",
    "lat": 29.08874,
    "lon": -110.96677
  },
  {
    "name": "Bhayandar",
    "lat": 19.30157,
    "lon": 72.85107
  },
  {
    "name": "Culiacán",
    "lat": 24.80209,
    "lon": -107.39421
  },
  {
    "name": "Petaling Jaya",
    "lat": 3.10726,
    "lon": 101.60671
  },
  {
    "name": "Malatya",
    "lat": 38.35018,
    "lon": 38.31667
  },
  {
    "name": "Anqing",
    "lat": 30.51365,
    "lon": 117.04723
  },
  {
    "name": "Kraków",
    "lat": 50.06143,
    "lon": 19.93658
  },
  {
    "name": "Oran",
    "lat": 35.69906,
    "lon": -0.63588
  },
  {
    "name": "Freetown",
    "lat": 8.48714,
    "lon": -13.2356
  },
  {
    "name": "San Pedro Sula",
    "lat": 15.50585,
    "lon": -88.02588
  },
  {
    "name": "Narela",
    "lat": 28.85267,
    "lon": 77.09288
  },
  {
    "name": "Xingtai",
    "lat": 37.06217,
    "lon": 114.49272
  },
  {
    "name": "Niigata",
    "lat": 37.92259,
    "lon": 139.04125
  },
  {
    "name": "Muscat",
    "lat": 23.58413,
    "lon": 58.40778
  },
  {
    "name": "Zarqa",
    "lat": 32.07275,
    "lon": 36.08796
  },
  {
    "name": "Çankaya",
    "lat": 39.9179,
    "lon": 32.86268
  },
  {
    "name": "Hamamatsu",
    "lat": 34.7,
    "lon": 137.73333
  },
  {
    "name": "Kolwezi",
    "lat": -10.71484,
    "lon": 25.46674
  },
  {
    "name": "Vinh",
    "lat": 18.67337,
    "lon": 105.69232
  },
  {
    "name": "Eskişehir",
    "lat": 39.77667,
    "lon": 30.52056
  },
  {
    "name": "Thiruvananthapuram",
    "lat": 8.4855,
    "lon": 76.94924
  },
  {
    "name": "Zhaotong",
    "lat": 27.31667,
    "lon": 103.71667
  },
  {
    "name": "Panzhihua",
    "lat": 26.58509,
    "lon": 101.71276
  },
  {
    "name": "Chuzhou",
    "lat": 32.32194,
    "lon": 118.29778
  },
  {
    "name": "Seattle",
    "lat": 47.60621,
    "lon": -122.33207
  },
  {
    "name": "Port Said",
    "lat": 31.26531,
    "lon": 32.3019
  },
  {
    "name": "Cúcuta",
    "lat": 7.90745,
    "lon": -72.5049
  },
  {
    "name": "Homs",
    "lat": 34.72405,
    "lon": 36.72559
  },
  {
    "name": "Xuancheng",
    "lat": 30.9525,
    "lon": 118.75528
  },
  {
    "name": "Ibb",
    "lat": 13.96667,
    "lon": 44.18333
  },
  {
    "name": "Nampula",
    "lat": -15.11646,
    "lon": 39.2666
  },
  {
    "name": "Shangyu",
    "lat": 30.01556,
    "lon": 120.87111
  },
  {
    "name": "Bujumbura",
    "lat": -3.38193,
    "lon": 29.36142
  },
  {
    "name": "Tyumen",
    "lat": 57.15222,
    "lon": 65.52722
  },
  {
    "name": "Erzurum",
    "lat": 39.90861,
    "lon": 41.27694
  },
  {
    "name": "Anshun",
    "lat": 26.25,
    "lon": 105.93333
  },
  {
    "name": "Dodoma",
    "lat": -6.17221,
    "lon": 35.73947
  },
  {
    "name": "Rajshahi",
    "lat": 24.374,
    "lon": 88.60114
  },
  {
    "name": "Dera Ismail Khan",
    "lat": 31.83129,
    "lon": 70.9017
  },
  {
    "name": "Wuzhou",
    "lat": 23.48054,
    "lon": 111.28848
  },
  {
    "name": "Ipoh",
    "lat": 4.5841,
    "lon": 101.0829
  },
  {
    "name": "Qinhuangdao",
    "lat": 39.94104,
    "lon": 119.58936
  },
  {
    "name": "Benghazi",
    "lat": 32.11486,
    "lon": 20.06859
  },
  {
    "name": "Alīgarh",
    "lat": 27.88145,
    "lon": 78.07464
  },
  {
    "name": "Shaoyang",
    "lat": 27.23818,
    "lon": 111.46214
  },
  {
    "name": "Winnipeg",
    "lat": 49.8844,
    "lon": -97.14704
  },
  {
    "name": "Bağcılar",
    "lat": 41.03903,
    "lon": 28.85671
  },
  {
    "name": "Ōta",
    "lat": 35.56126,
    "lon": 139.71605
  },
  {
    "name": "Andijon",
    "lat": 40.78338,
    "lon": 72.35067
  },
  {
    "name": "Bareilly",
    "lat": 28.36678,
    "lon": 79.43167
  },
  {
    "name": "Buraydah",
    "lat": 26.32599,
    "lon": 43.97497
  },
  {
    "name": "São Bernardo do Campo",
    "lat": -23.69389,
    "lon": -46.565
  },
  {
    "name": "Hegang",
    "lat": 47.34727,
    "lon": 130.29033
  },
  {
    "name": "Morelia",
    "lat": 19.70078,
    "lon": -101.18443
  },
  {
    "name": "Riga",
    "lat": 56.946,
    "lon": 24.10589
  },
  {
    "name": "Tasikmalaya",
    "lat": -7.3274,
    "lon": 108.2207
  },
  {
    "name": "Amsterdam",
    "lat": 52.37403,
    "lon": 4.88969
  },
  {
    "name": "Cagayan de Oro",
    "lat": 8.48222,
    "lon": 124.64722
  },
  {
    "name": "Ma’anshan",
    "lat": 31.68579,
    "lon": 118.51008
  },
  {
    "name": "Shah Alam",
    "lat": 3.08507,
    "lon": 101.53281
  },
  {
    "name": "Shizuishan",
    "lat": 38.98082,
    "lon": 106.3892
  },
  {
    "name": "Kumamoto",
    "lat": 32.80589,
    "lon": 130.69181
  },
  {
    "name": "Oyo",
    "lat": 7.85367,
    "lon": 3.93235
  },
  {
    "name": "Torreón",
    "lat": 25.54389,
    "lon": -103.41898
  },
  {
    "name": "Deyang",
    "lat": 31.13019,
    "lon": 104.38198
  },
  {
    "name": "Abeokuta",
    "lat": 7.15571,
    "lon": 3.34509
  },
  {
    "name": "Al Ḩudaydah",
    "lat": 14.79781,
    "lon": 42.95452
  },
  {
    "name": "Yangquan",
    "lat": 37.8575,
    "lon": 113.56333
  },
  {
    "name": "Akure",
    "lat": 7.25256,
    "lon": 5.19312
  },
  {
    "name": "São José dos Campos",
    "lat": -23.17944,
    "lon": -45.88694
  },
  {
    "name": "Denver",
    "lat": 39.73915,
    "lon": -104.9847
  },
  {
    "name": "Osasco",
    "lat": -23.5325,
    "lon": -46.79167
  },
  {
    "name": "Ashgabat",
    "lat": 37.95,
    "lon": 58.38333
  },
  {
    "name": "Álvaro Obregón",
    "lat": 19.35867,
    "lon": -99.20329
  },
  {
    "name": "Aihara",
    "lat": 35.6,
    "lon": 139.31667
  },
  {
    "name": "Evaton",
    "lat": -26.53333,
    "lon": 27.85
  },
  {
    "name": "Denpasar",
    "lat": -8.65,
    "lon": 115.21667
  },
  {
    "name": "Valenzuela",
    "lat": 14.7,
    "lon": 120.9667
  },
  {
    "name": "Muzaffarābād",
    "lat": 34.37002,
    "lon": 73.47082
  },
  {
    "name": "Okayama",
    "lat": 34.65,
    "lon": 133.93333
  },
  {
    "name": "San Luis Potosí",
    "lat": 22.15234,
    "lon": -100.97135
  },
  {
    "name": "Aguascalientes",
    "lat": 21.88262,
    "lon": -102.2843
  },
  {
    "name": "General Santos",
    "lat": 6.11278,
    "lon": 125.17167
  },
  {
    "name": "Zhumadian",
    "lat": 32.97944,
    "lon": 114.02944
  },
  {
    "name": "Morādābād",
    "lat": 28.83893,
    "lon": 78.77684
  },
  {
    "name": "Sagamihara",
    "lat": 35.56707,
    "lon": 139.24167
  },
  {
    "name": "Mississauga",
    "lat": 43.5789,
    "lon": -79.6583
  },
  {
    "name": "Lviv",
    "lat": 49.83826,
    "lon": 24.02324
  },
  {
    "name": "Namangan",
    "lat": 40.9983,
    "lon": 71.67257
  },
  {
    "name": "Ribeirão Preto",
    "lat": -21.1775,
    "lon": -47.81028
  },
  {
    "name": "Zaporizhzhya",
    "lat": 47.85167,
    "lon": 35.11714
  },
  {
    "name": "Zanzibar",
    "lat": -6.16394,
    "lon": 39.19793
  },
  {
    "name": "Saltillo",
    "lat": 25.42595,
    "lon": -100.97963
  },
  {
    "name": "Latakia",
    "lat": 35.53125,
    "lon": 35.79088
  },
  {
    "name": "Subang Jaya",
    "lat": 3.04384,
    "lon": 101.58062
  },
  {
    "name": "Warangal",
    "lat": 18.0,
    "lon": 79.58333
  },
  {
    "name": "Paranaque City",
    "lat": 14.48156,
    "lon": 121.01749
  },
  {
    "name": "Tolyatti",
    "lat": 53.5303,
    "lon": 49.3461
  },
  {
    "name": "Jaboatão",
    "lat": -8.18028,
    "lon": -35.00139
  },
  {
    "name": "Santo Domingo Oeste",
    "lat": 18.5,
    "lon": -70.0
  },
  {
    "name": "Santo Domingo Este",
    "lat": 18.48511,
    "lon": -69.84757
  },
  {
    "name": "Dhārāvi",
    "lat": 19.05,
    "lon": 72.86667
  },
  {
    "name": "Battagram",
    "lat": 34.67719,
    "lon": 73.02329
  },
  {
    "name": "Suez",
    "lat": 29.97371,
    "lon": 32.52627
  },
  {
    "name": "Changzhi",
    "lat": 35.20889,
    "lon": 111.73861
  },
  {
    "name": "Agadir",
    "lat": 30.42018,
    "lon": -9.59815
  },
  {
    "name": "Edogawe",
    "lat": 35.69225,
    "lon": 139.87308
  },
  {
    "name": "Sarajevo",
    "lat": 43.84864,
    "lon": 18.35644
  },
  {
    "name": "Balikpapan",
    "lat": -1.26753,
    "lon": 116.82887
  },
  {
    "name": "Adachi",
    "lat": 35.76318,
    "lon": 139.80761
  },
  {
    "name": "Bauchi",
    "lat": 10.31032,
    "lon": 9.84388
  },
  {
    "name": "Shizuoka",
    "lat": 34.98333,
    "lon": 138.38333
  },
  {
    "name": "Tunis",
    "lat": 36.81897,
    "lon": 10.16579
  },
  {
    "name": "Zhangjiakou",
    "lat": 40.78341,
    "lon": 114.87139
  },
  {
    "name": "Serang",
    "lat": -6.11528,
    "lon": 106.15417
  },
  {
    "name": "Washington",
    "lat": 38.89511,
    "lon": -77.03637
  },
  {
    "name": "Nashville",
    "lat": 36.16589,
    "lon": -86.78444
  },
  {
    "name": "Fuxin",
    "lat": 42.01556,
    "lon": 121.65889
  },
  {
    "name": "Ta’if",
    "lat": 21.27028,
    "lon": 40.41583
  },
  {
    "name": "Changsha",
    "lat": 22.38124,
    "lon": 112.68492
  },
  {
    "name": "Huangshi",
    "lat": 30.24706,
    "lon": 115.04814
  },
  {
    "name": "Liaoyang",
    "lat": 41.27194,
    "lon": 123.17306
  },
  {
    "name": "Hlaingthaya",
    "lat": 16.85,
    "lon": 96.06667
  },
  {
    "name": "Beira",
    "lat": -19.84361,
    "lon": 34.83889
  },
  {
    "name": "Sorocaba",
    "lat": -23.50167,
    "lon": -47.45806
  },
  {
    "name": "Zaragoza",
    "lat": 41.65606,
    "lon": -0.87734
  },
  {
    "name": "Sevilla",
    "lat": 37.38283,
    "lon": -5.97317
  },
  {
    "name": "Baise",
    "lat": 23.89013,
    "lon": 106.62684
  },
  {
    "name": "Situbondo",
    "lat": -7.70623,
    "lon": 114.00976
  },
  {
    "name": "Binzhou",
    "lat": 37.36667,
    "lon": 118.01667
  },
  {
    "name": "Oklahoma City",
    "lat": 35.46756,
    "lon": -97.51643
  },
  {
    "name": "Yuncheng",
    "lat": 35.02306,
    "lon": 110.99278
  },
  {
    "name": "Dezhou",
    "lat": 37.44661,
    "lon": 116.36706
  },
  {
    "name": "Dushanbe",
    "lat": 38.53575,
    "lon": 68.77905
  },
  {
    "name": "Cotonou",
    "lat": 6.36536,
    "lon": 2.41833
  },
  {
    "name": "El Paso",
    "lat": 31.75872,
    "lon": -106.48693
  },
  {
    "name": "Gorakhpur",
    "lat": 26.76628,
    "lon": 83.36889
  },
  {
    "name": "Guadalupe",
    "lat": 25.67678,
    "lon": -100.25646
  },
  {
    "name": "Wrocław",
    "lat": 51.10286,
    "lon": 17.03006
  },
  {
    "name": "Guntur",
    "lat": 16.29974,
    "lon": 80.45729
  },
  {
    "name": "Katsina",
    "lat": 12.99082,
    "lon": 7.60177
  },
  {
    "name": "Sanmenxia",
    "lat": 34.78081,
    "lon": 111.19287
  },
  {
    "name": "E’zhou",
    "lat": 30.39607,
    "lon": 114.88655
  },
  {
    "name": "Madīnat an Naşr",
    "lat": 30.06667,
    "lon": 31.3
  },
  {
    "name": "Tabuk",
    "lat": 28.3998,
    "lon": 36.57151
  },
  {
    "name": "Kitwe",
    "lat": -12.80243,
    "lon": 28.21323
  },
  {
    "name": "Bulawayo",
    "lat": -20.15,
    "lon": 28.58333
  },
  {
    "name": "Mudanjiang",
    "lat": 44.54804,
    "lon": 129.62594
  },
  {
    "name": "Aracaju",
    "lat": -10.91111,
    "lon": -37.07167
  },
  {
    "name": "Athens",
    "lat": 37.98376,
    "lon": 23.72784
  },
  {
    "name": "Zagreb",
    "lat": 45.81444,
    "lon": 15.97798
  },
  {
    "name": "Leshan",
    "lat": 29.56227,
    "lon": 103.76386
  },
  {
    "name": "Santo André",
    "lat": -23.66389,
    "lon": -46.53833
  },
  {
    "name": "Vancouver",
    "lat": 49.24966,
    "lon": -123.11934
  },
  {
    "name": "Rizhao",
    "lat": 35.41414,
    "lon": 119.52908
  },
  {
    "name": "Helsinki",
    "lat": 60.16952,
    "lon": 24.93545
  },
  {
    "name": "Cheonan",
    "lat": 36.8065,
    "lon": 127.1522
  },
  {
    "name": "Pontianak",
    "lat": -0.03194,
    "lon": 109.325
  },
  {
    "name": "Acapulco de Juárez",
    "lat": 16.84942,
    "lon": -99.90891
  },
  {
    "name": "Banjarmasin",
    "lat": -3.31987,
    "lon": 114.59075
  },
  {
    "name": "Puducherry",
    "lat": 11.93381,
    "lon": 79.82979
  },
  {
    "name": "Suining",
    "lat": 30.50802,
    "lon": 105.57332
  },
  {
    "name": "Brampton",
    "lat": 43.68341,
    "lon": -79.76633
  },
  {
    "name": "Puyang",
    "lat": 35.75641,
    "lon": 115.04363
  },
  {
    "name": "Soacha",
    "lat": 4.57937,
    "lon": -74.21682
  },
  {
    "name": "Boston",
    "lat": 42.35843,
    "lon": -71.05977
  },
  {
    "name": "Tlalnepantla",
    "lat": 19.54005,
    "lon": -99.19538
  },
  {
    "name": "Portland",
    "lat": 45.52345,
    "lon": -122.67621
  },
  {
    "name": "Tlaquepaque",
    "lat": 20.64121,
    "lon": -103.29342
  },
  {
    "name": "Frankfurt am Main",
    "lat": 50.11552,
    "lon": 8.68417
  },
  {
    "name": "Macau",
    "lat": 22.20056,
    "lon": 113.54611
  },
  {
    "name": "Palermo",
    "lat": 38.1166,
    "lon": 13.3636
  },
  {
    "name": "Izhevsk",
    "lat": 56.85225,
    "lon": 53.19862
  },
  {
    "name": "Colombo",
    "lat": 6.93548,
    "lon": 79.84868
  },
  {
    "name": "Maturín",
    "lat": 9.74569,
    "lon": -63.18323
  },
  {
    "name": "Amravati",
    "lat": 20.93333,
    "lon": 77.75
  },
  {
    "name": "Detroit",
    "lat": 42.33143,
    "lon": -83.04575
  },
  {
    "name": "Łódź",
    "lat": 51.77058,
    "lon": 19.47395
  },
  {
    "name": "Osogbo",
    "lat": 7.77104,
    "lon": 4.55698
  },
  {
    "name": "Honchō",
    "lat": 35.70129,
    "lon": 139.98648
  },
  {
    "name": "Bikaner",
    "lat": 28.01762,
    "lon": 73.31495
  },
  {
    "name": "Jaboatão dos Guararapes",
    "lat": -8.11278,
    "lon": -35.01472
  },
  {
    "name": "Las Vegas",
    "lat": 36.17497,
    "lon": -115.13722
  },
  {
    "name": "New South Memphis",
    "lat": 35.08676,
    "lon": -90.05676
  },
  {
    "name": "Hwaseong-si",
    "lat": 37.20682,
    "lon": 126.8169
  },
  {
    "name": "Gold Coast",
    "lat": -28.00029,
    "lon": 153.43088
  },
  {
    "name": "Al Aḩmadī",
    "lat": 29.07694,
    "lon": 48.08389
  },
  {
    "name": "Cuenca",
    "lat": -2.8953,
    "lon": -78.9963
  },
  {
    "name": "Chisinau",
    "lat": 47.00902,
    "lon": 28.85938
  },
  {
    "name": "Likasi",
    "lat": -10.98303,
    "lon": 26.7384
  },
  {
    "name": "Hebi",
    "lat": 35.73231,
    "lon": 114.28616
  },
  {
    "name": "Tshikapa",
    "lat": -6.41621,
    "lon": 20.79995
  },
  {
    "name": "Kochi",
    "lat": 9.93988,
    "lon": 76.26022
  },
  {
    "name": "Memphis",
    "lat": 35.14953,
    "lon": -90.04898
  },
  {
    "name": "Jingmen",
    "lat": 31.03361,
    "lon": 112.20472
  },
  {
    "name": "Barnaul",
    "lat": 53.36199,
    "lon": 83.72786
  },
  {
    "name": "Dandong",
    "lat": 40.12917,
    "lon": 124.39472
  },
  {
    "name": "Stuttgart",
    "lat": 48.78232,
    "lon": 9.17702
  },
  {
    "name": "Jeonju",
    "lat": 35.82194,
    "lon": 127.14889
  },
  {
    "name": "Bhilai",
    "lat": 21.20919,
    "lon": 81.4285
  },
  {
    "name": "Ndola",
    "lat": -12.95867,
    "lon": 28.63659
  },
  {
    "name": "Contagem",
    "lat": -19.93167,
    "lon": -44.05361
  },
  {
    "name": "Ulyanovsk",
    "lat": 54.32824,
    "lon": 48.38657
  },
  {
    "name": "Djibouti",
    "lat": 11.58901,
    "lon": 43.14503
  },
  {
    "name": "Glasgow",
    "lat": 55.86515,
    "lon": -4.25763
  },
  {
    "name": "Panshan",
    "lat": 41.18806,
    "lon": 122.04944
  },
  {
    "name": "Louisville",
    "lat": 38.25424,
    "lon": -85.75941
  },
  {
    "name": "Irkutsk",
    "lat": 52.29566,
    "lon": 104.29076
  },
  {
    "name": "Ansan-si",
    "lat": 37.32361,
    "lon": 126.82194
  },
  {
    "name": "Al Mansurah",
    "lat": 31.03637,
    "lon": 31.38069
  },
  {
    "name": "Kermanshah",
    "lat": 34.31417,
    "lon": 47.065
  },
  {
    "name": "Düsseldorf",
    "lat": 51.22172,
    "lon": 6.77616
  },
  {
    "name": "Feira de Santana",
    "lat": -12.26667,
    "lon": -38.96667
  },
  {
    "name": "Jiaozhou",
    "lat": 36.28389,
    "lon": 120.00333
  },
  {
    "name": "Suizhou",
    "lat": 31.71111,
    "lon": 113.36306
  },
  {
    "name": "Villa Nueva",
    "lat": 14.52512,
    "lon": -90.58544
  },
  {
    "name": "Khabarovsk",
    "lat": 48.46204,
    "lon": 135.0971
  },
  {
    "name": "Cuiabá",
    "lat": -15.59611,
    "lon": -56.09667
  },
  {
    "name": "Arusha",
    "lat": -3.36667,
    "lon": 36.68333
  },
  {
    "name": "Las Piñas",
    "lat": 14.45056,
    "lon": 120.98278
  },
  {
    "name": "Chizhou",
    "lat": 30.66134,
    "lon": 117.47783
  },
  {
    "name": "Coyoacán",
    "lat": 19.3467,
    "lon": -99.16174
  },
  {
    "name": "Ya'an",
    "lat": 29.98521,
    "lon": 102.999
  },
  {
    "name": "Cuttack",
    "lat": 20.46497,
    "lon": 85.87927
  },
  {
    "name": "Borivli",
    "lat": 19.23496,
    "lon": 72.85976
  },
  {
    "name": "Yaroslavl",
    "lat": 57.62987,
    "lon": 39.87368
  },
  {
    "name": "Göteborg",
    "lat": 57.70716,
    "lon": 11.96679
  },
  {
    "name": "Kawaguchi",
    "lat": 35.80521,
    "lon": 139.71072
  },
  {
    "name": "Bukit Rahman Putra",
    "lat": 3.21727,
    "lon": 101.5608
  },
  {
    "name": "Jambi City",
    "lat": -1.6,
    "lon": 103.61667
  },
  {
    "name": "Ha'il",
    "lat": 27.52188,
    "lon": 41.69073
  },
  {
    "name": "Bhavnagar",
    "lat": 21.76287,
    "lon": 72.15331
  },
  {
    "name": "Benoni",
    "lat": -26.18848,
    "lon": 28.32078
  },
  {
    "name": "Vladivostok",
    "lat": 43.10562,
    "lon": 131.87353
  },
  {
    "name": "Jinzhou",
    "lat": 41.10778,
    "lon": 121.14167
  },
  {
    "name": "Tuxtla",
    "lat": 16.75357,
    "lon": -93.11578
  },
  {
    "name": "Kryvyy Rih",
    "lat": 47.90572,
    "lon": 33.39404
  },
  {
    "name": "Sanming",
    "lat": 26.24861,
    "lon": 117.61861
  },
  {
    "name": "Islamabad",
    "lat": 33.72148,
    "lon": 73.04329
  },
  {
    "name": "Sāngli",
    "lat": 16.85438,
    "lon": 74.56417
  },
  {
    "name": "Jamnagar",
    "lat": 22.47292,
    "lon": 70.06673
  },
  {
    "name": "Lubango",
    "lat": -14.91717,
    "lon": 13.4925
  },
  {
    "name": "Pokhara",
    "lat": 28.26689,
    "lon": 83.96851
  },
  {
    "name": "Shuangyashan",
    "lat": 46.67686,
    "lon": 131.13273
  },
  {
    "name": "Borama",
    "lat": 9.93611,
    "lon": 43.18278
  },
  {
    "name": "Pallabi",
    "lat": 23.825,
    "lon": 90.37
  },
  {
    "name": "Luancheng",
    "lat": 37.88452,
    "lon": 114.64629
  },
  {
    "name": "Makhachkala",
    "lat": 42.97782,
    "lon": 47.50027
  },
  {
    "name": "Anyang-si",
    "lat": 37.3925,
    "lon": 126.92694
  },
  {
    "name": "Huambo",
    "lat": -12.77611,
    "lon": 15.73917
  },
  {
    "name": "Samarkand",
    "lat": 39.65456,
    "lon": 66.96445
  },
  {
    "name": "Mengzi",
    "lat": 23.36779,
    "lon": 103.38212
  },
  {
    "name": "Kagoshima",
    "lat": 31.56667,
    "lon": 130.55
  },
  {
    "name": "Mukalla",
    "lat": 14.54248,
    "lon": 49.12424
  },
  {
    "name": "Rasht",
    "lat": 37.27611,
    "lon": 49.58862
  },
  {
    "name": "Mar del Plata",
    "lat": -38.00042,
    "lon": -57.5562
  },
  {
    "name": "Essen",
    "lat": 51.45657,
    "lon": 7.01228
  },
  {
    "name": "Al Maḩallah al Kubrá",
    "lat": 30.97063,
    "lon": 31.1669
  },
  {
    "name": "Málaga",
    "lat": 36.72016,
    "lon": -4.42034
  },
  {
    "name": "Shekhupura",
    "lat": 31.71287,
    "lon": 73.98556
  },
  {
    "name": "Yingkou",
    "lat": 40.66472,
    "lon": 122.23176
  },
  {
    "name": "Cimahi",
    "lat": -6.87222,
    "lon": 107.5425
  },
  {
    "name": "Zhangzhou",
    "lat": 24.51333,
    "lon": 117.65556
  },
  {
    "name": "Reynosa",
    "lat": 26.08005,
    "lon": -98.28456
  },
  {
    "name": "Thuận An",
    "lat": 10.9239,
    "lon": 106.71428
  },
  {
    "name": "Dortmund",
    "lat": 51.51494,
    "lon": 7.466
  },
  {
    "name": "Suginami",
    "lat": 36.2013,
    "lon": 140.28406
  },
  {
    "name": "Londrina",
    "lat": -23.31028,
    "lon": -51.16278
  },
  {
    "name": "Baltimore",
    "lat": 39.29038,
    "lon": -76.61219
  },
  {
    "name": "Itabashi",
    "lat": 35.74893,
    "lon": 139.71497
  },
  {
    "name": "New Kingston",
    "lat": 18.00747,
    "lon": -76.78319
  },
  {
    "name": "Pelentong",
    "lat": 1.5243,
    "lon": 103.824
  },
  {
    "name": "Bucaramanga",
    "lat": 7.125,
    "lon": -73.11895
  },
  {
    "name": "Genoa",
    "lat": 44.40478,
    "lon": 8.94439
  },
  {
    "name": "Hachiōji",
    "lat": 35.65583,
    "lon": 139.32389
  },
  {
    "name": "Malacca",
    "lat": 2.196,
    "lon": 102.2405
  },
  {
    "name": "Nha Trang",
    "lat": 12.24507,
    "lon": 109.19432
  },
  {
    "name": "Khabarovsk Vtoroy",
    "lat": 48.43787,
    "lon": 135.12994
  },
  {
    "name": "Kerman",
    "lat": 30.28321,
    "lon": 57.07879
  },
  {
    "name": "Orūmīyeh",
    "lat": 37.55274,
    "lon": 45.07605
  },
  {
    "name": "Bahçelievler",
    "lat": 41.00231,
    "lon": 28.8598
  },
  {
    "name": "Tanta",
    "lat": 30.78847,
    "lon": 31.00192
  },
  {
    "name": "Jammu",
    "lat": 32.73528,
    "lon": 74.86167
  },
  {
    "name": "Iskandar Puteri",
    "lat": 1.39324,
    "lon": 103.62322
  },
  {
    "name": "Calamba",
    "lat": 14.21167,
    "lon": 121.16528
  },
  {
    "name": "Tlalpan",
    "lat": 19.29513,
    "lon": -99.16206
  },
  {
    "name": "Herāt",
    "lat": 34.34817,
    "lon": 62.19967
  },
  {
    "name": "Gujrat",
    "lat": 32.5742,
    "lon": 74.07542
  },
  {
    "name": "Tomsk",
    "lat": 56.50049,
    "lon": 84.98216
  },
  {
    "name": "Juiz de Fora",
    "lat": -21.76417,
    "lon": -43.35028
  },
  {
    "name": "Umraniye",
    "lat": 41.01643,
    "lon": 29.12476
  },
  {
    "name": "Shihezi",
    "lat": 44.3023,
    "lon": 86.03694
  },
  {
    "name": "South Boston",
    "lat": 42.33343,
    "lon": -71.04949
  },
  {
    "name": "Nakuru",
    "lat": -0.30719,
    "lon": 36.07225
  },
  {
    "name": "Hamilton",
    "lat": 43.25011,
    "lon": -79.84963
  },
  {
    "name": "Irbid",
    "lat": 32.55556,
    "lon": 35.85
  },
  {
    "name": "Manchester",
    "lat": 53.48095,
    "lon": -2.23743
  },
  {
    "name": "Kota Bharu",
    "lat": 6.12361,
    "lon": 102.24333
  },
  {
    "name": "Surrey",
    "lat": 49.10635,
    "lon": -122.82509
  },
  {
    "name": "Meknes",
    "lat": 33.89352,
    "lon": -5.54727
  },
  {
    "name": "Puente Alto",
    "lat": -33.61169,
    "lon": -70.57577
  },
  {
    "name": "Nyala",
    "lat": 12.04888,
    "lon": 24.88069
  },
  {
    "name": "Orenburg",
    "lat": 51.76712,
    "lon": 55.09883
  },
  {
    "name": "Albuquerque",
    "lat": 35.08449,
    "lon": -106.65114
  },
  {
    "name": "Bokāro",
    "lat": 23.66934,
    "lon": 86.15161
  },
  {
    "name": "Asmara",
    "lat": 15.33805,
    "lon": 38.93184
  },
  {
    "name": "Sukkur",
    "lat": 27.70323,
    "lon": 68.85889
  },
  {
    "name": "Uberlândia",
    "lat": -18.91861,
    "lon": -48.27722
  },
  {
    "name": "Milwaukee",
    "lat": 43.0389,
    "lon": -87.90647
  },
  {
    "name": "Chợ Lớn",
    "lat": 10.75,
    "lon": 106.65
  },
  {
    "name": "Wenchang",
    "lat": 19.55158,
    "lon": 110.80279
  },
  {
    "name": "Ile-Ife",
    "lat": 7.4824,
    "lon": 4.56032
  },
  {
    "name": "Gombe",
    "lat": 10.28969,
    "lon": 11.16729
  },
  {
    "name": "Hamhŭng",
    "lat": 39.91833,
    "lon": 127.53639
  },
  {
    "name": "Kemerovo",
    "lat": 55.35417,
    "lon": 86.10435
  },
  {
    "name": "Nasiriyah",
    "lat": 31.05799,
    "lon": 46.25726
  },
  {
    "name": "Bloemfontein",
    "lat": -29.12107,
    "lon": 26.214
  },
  {
    "name": "Sheffield",
    "lat": 53.38297,
    "lon": -1.4659
  },
  {
    "name": "Dresden",
    "lat": 51.05089,
    "lon": 13.73832
  },
  {
    "name": "Santiago de Cuba",
    "lat": 20.02287,
    "lon": -75.82171
  },
  {
    "name": "Siping",
    "lat": 43.16143,
    "lon": 124.37785
  },
  {
    "name": "Cuautitlán Izcalli",
    "lat": 19.64388,
    "lon": -99.21598
  },
  {
    "name": "Benguela",
    "lat": -12.57674,
    "lon": 13.40268
  },
  {
    "name": "Chuxiong",
    "lat": 25.03639,
    "lon": 101.54556
  },
  {
    "name": "Huaihua",
    "lat": 27.56337,
    "lon": 110.00404
  },
  {
    "name": "Chiclayo",
    "lat": -6.77008,
    "lon": -79.85495
  }
]